{
  "locations": [
    {
      "id": "yoga_1",
      "name": "Yoga & Wellness Studio Tunis",
      "type": "yoga",
      "activityTypes": ["physical", "social"],
      "address": "Rue de la Liberté, Tunis 1000",
      "latitude": 36.8065,
      "longitude": 10.1678,
      "capacity": 30,
      "description": "Studio spécialisé en yoga avec équipements modernes",
      "amenities": ["Wifi", "Parking", "Vestiaires", "Douches"],
      "availability": "09:00-20:00"
    },
    {
      "id": "yoga_2",
      "name": "Parc El Omrane Supérieur - Yoga Area",
      "type": "yoga",
      "activityTypes": ["physical", "social"],
      "address": "El Omrane Supérieur, Tunis",
      "latitude": 36.8234,
      "longitude": 10.1456,
      "capacity": 50,
      "description": "Espace vert parfait pour le yoga en plein air",
      "amenities": ["Gratuit", "Ombrage", "Bancs", "Parking"],
      "availability": "06:00-18:00"
    },
    {
      "id": "dance_1",
      "name": "Studio Salsateca - Salle de Danse",
      "type": "dance",
      "activityTypes": ["physical", "social", "creative"],
      "address": "Avenue Habib Bourguiba, Tunis 1000",
      "latitude": 36.8095,
      "longitude": 10.1719,
      "capacity": 40,
      "description": "Studio avec piste de danse professionnelle et miroirs",
      "amenities": ["Wifi", "Musique", "Éclairage", "Parking"],
      "availability": "10:00-22:00"
    },
    {
      "id": "dance_2",
      "name": "Centre Culturel - Salle Polyvalente",
      "type": "dance",
      "activityTypes": ["physical", "social", "creative"],
      "address": "Boulevard 9 Avril, Tunis 1000",
      "latitude": 36.8012,
      "longitude": 10.1856,
      "capacity": 80,
      "description": "Grande salle avec équipement complet pour tous les types de danse",
      "amenities": ["Chauffage", "AC", "Vestiaires", "Parking public"],
      "availability": "09:00-21:00"
    },
    {
      "id": "gym_1",
      "name": "Elite Fitness Gym Ariana",
      "type": "gym",
      "activityTypes": ["physical"],
      "address": "Zone Industrielle Ariana",
      "latitude": 36.8661,
      "longitude": 10.1753,
      "capacity": 60,
      "description": "Salle de fitness équipée d'appareils modernes",
      "amenities": ["AC", "Wifi", "Café", "Vestiaires", "Douches"],
      "availability": "06:00-22:00"
    },
    {
      "id": "library_1",
      "name": "Bibliothèque Nationale Tunis",
      "type": "library",
      "activityTypes": ["cognitive", "social"],
      "address": "Place 7 Novembre, Tunis 1000",
      "latitude": 36.8052,
      "longitude": 10.1631,
      "capacity": 100,
      "description": "Espace d'apprentissage avec ressources illimitées",
      "amenities": ["Wifi", "Calme", "Parking", "Café"],
      "availability": "09:00-18:00"
    },
    {
      "id": "tech_hub_1",
      "name": "Tech Hub Sfax - Innovation Center",
      "type": "tech_hub",
      "activityTypes": ["cognitive", "social"],
      "address": "Avenue de l'Environnement, Sfax 3000",
      "latitude": 34.7406,
      "longitude": 10.7603,
      "capacity": 50,
      "description": "Centre d'innovation avec équipement technologique",
      "amenities": ["Wifi", "Projecteurs", "Tableau blanc", "Parking"],
      "availability": "08:00-18:00"
    },
    {
      "id": "school_1",
      "name": "Institut Supérieur d'Informatique - Salle Lecture",
      "type": "school",
      "activityTypes": ["cognitive", "social"],
      "address": "Technopole Ghazala, Tunis 2083",
      "latitude": 36.9036,
      "longitude": 10.1889,
      "capacity": 60,
      "description": "Salles d'apprentissage avec tableaux intelligents",
      "amenities": ["Wifi", "Climatisation", "Projecteurs", "Parking"],
      "availability": "08:00-17:00"
    },
    {
      "id": "park_1",
      "name": "Parc Belvedère - Espace Libre",
      "type": "park",
      "activityTypes": ["physical", "social"],
      "address": "Avenue de la Liberté, Tunis 1000",
      "latitude": 36.8203,
      "longitude": 10.1453,
      "capacity": 100,
      "description": "Grand parc avec vue panoramique sur Tunis",
      "amenities": ["Gratuit", "Ombrage", "Bancs", "Parking"],
      "availability": "06:00-20:00"
    },
    {
      "id": "community_1",
      "name": "Maison des Jeunes - Tunis Nord",
      "type": "community_center",
      "activityTypes": ["physical", "social", "creative"],
      "address": "Avenue Mohamed Amin, Tunis 1006",
      "latitude": 36.8234,
      "longitude": 10.1234,
      "capacity": 70,
      "description": "Centre communautaire avec équipements variés",
      "amenities": ["Wifi", "AC", "Cuisine", "Parking"],
      "availability": "10:00-20:00"
    },
    {
      "id": "auditorium_1",
      "name": "Auditorium Ezzahra",
      "type": "auditorium",
      "activityTypes": ["social", "creative"],
      "address": "Route La Marsa, Ezzahra",
      "latitude": 36.9089,
      "longitude": 10.2103,
      "capacity": 200,
      "description": "Grand auditorium avec scène et équipement audio-visuel",
      "amenities": ["Projecteurs", "Son", "Vestiaires", "Parking"],
      "availability": "09:00-22:00"
    },
    {
      "id": "pool_1",
      "name": "Complexe Sportif Olympique - Piscine",
      "type": "pool",
      "activityTypes": ["physical"],
      "address": "Boulevard du Lac Nord, Tunis",
      "latitude": 36.8456,
      "longitude": 10.1234,
      "capacity": 80,
      "description": "Piscine olympique avec équipement de sport aquatique",
      "amenities": ["Vestiaires", "Douches", "Café", "Parking"],
      "availability": "06:00-20:00"
    },
    {
      "id": "studio_1",
      "name": "Studio D'Art & Créativité",
      "type": "art_studio",
      "activityTypes": ["creative", "social"],
      "address": "Rue de Carthage, Tunis 1000",
      "latitude": 36.8072,
      "longitude": 10.1701,
      "capacity": 25,
      "description": "Studio d'art avec tous les matériaux nécessaires",
      "amenities": ["Matériaux fournis", "Wifi", "AC", "Parking"],
      "availability": "10:00-18:00"
    }
  ],
  "activityTypeMapping": {
    "physical": ["gym", "park", "pool", "dance", "yoga"],
    "cognitive": ["library", "tech_hub", "school", "community_center"],
    "creative": ["art_studio", "community_center", "dance", "studio"],
    "social": ["community_center", "auditorium", "park", "yoga", "dance", "library"]
  }
}
